name,area,organization,category,latitude,longitude,altitude,direction
朝霧高原PGS TO,朝霧,朝霧高原PGS,Takeoff,35.4131067,138.5700626,1180,S
朝霧高原PGS LD,朝霧,朝霧高原PGS,Landing,35.4104096,138.5842042,893,
朝霧高原PGS 南 LD,朝霧,朝霧高原PGS,Landing,35.4045597,138.5746542,819,
スカイ朝霧 TO,朝霧,スカイ朝霧,Takeoff,35.3727812,138.5466466,1020,E
スカイ朝霧 LD,朝霧,スカイ朝霧,Landing,35.3706179,138.5540903,712,
西富士 TO,朝霧,西富士友の会,Takeoff,35.3756876,138.5394487,1172,E
白糸 TO,朝霧,スカイ朝霧,Takeoff,35.3309718,138.5599782,831,S
白糸 LD,朝霧,スカイ朝霧,Landing,35.3262078,138.5588975,603,
